City,Lat,Lng,Max Temp,Humidity,Cloudiness,Windspeed,Country,Date
hobart,-42.8794,147.3294,47.05,64,20,18.41,AU,1662893036
sechura,-5.5569,-80.8222,60.21,91,60,9.91,PE,1662893126
byron bay,-28.65,153.6167,60.94,73,94,7.83,AU,1662892550
fort nelson,58.8053,-122.7002,35.19,87,40,0.0,CA,1662893000
tautira,-17.7333,-149.15,77.52,73,5,16.35,PF,1662892880
kushima,31.4583,131.2333,77.45,90,62,7.94,JP,1662893007
juba,4.8517,31.5825,86.47,52,65,5.06,SS,1662893191
bethel,41.3712,-73.414,67.62,85,0,0.0,US,1662893192
new norfolk,-42.7826,147.0587,46.71,77,48,5.99,AU,1662893176
zaliztsi,49.7919,25.373,61.18,69,72,15.01,UA,1662893193
bluff,-46.6,168.3333,45.9,84,41,9.13,NZ,1662893193
la ronge,55.1001,-105.2842,52.02,81,0,5.75,CA,1662893194
necochea,-38.5473,-58.7368,44.11,55,0,8.9,AR,1662892740
georgetown,5.4112,100.3354,84.15,68,20,5.01,MY,1662893020
santa cruz,-17.8,-63.1667,68.05,32,75,9.22,BO,1662893195
esna,25.2934,32.554,96.82,13,2,15.35,EG,1662893195
jamestown,42.097,-79.2353,63.01,76,100,5.75,US,1662893196
salinas,36.6777,-121.6555,72.72,77,0,4.61,US,1662893072
ushuaia,-54.8,-68.3,44.26,42,20,11.5,AR,1662893197
ixtapa,20.7,-105.2,77.23,95,100,1.01,MX,1662892783
longyearbyen,78.2186,15.6401,39.04,70,75,17.27,SJ,1662893199
acajutla,13.5928,-89.8275,77.36,85,100,4.18,SV,1662892894
lebu,-37.6167,-73.65,45.3,91,8,4.94,CL,1662893200
kapaa,22.0752,-159.319,76.98,86,100,4.61,US,1662893202
tuatapere,-46.1333,167.6833,42.94,86,95,4.85,NZ,1662893203
chokurdakh,70.6333,147.9167,39.45,83,100,3.83,RU,1662892742
port elizabeth,-33.918,25.5701,71.1,63,20,23.02,ZA,1662893205
rikitea,-23.1203,-134.9692,72.14,75,0,10.42,PF,1662893205
atuona,-9.8,-139.0333,76.5,71,1,18.92,PF,1662893206
sebastian,35.1668,-94.2669,68.56,92,98,6.69,US,1662893207
butaritari,3.0707,172.7902,81.68,72,13,14.65,KI,1662893209
albany,42.6001,-73.9662,64.72,89,100,0.45,US,1662893210
deep river,46.1001,-77.4995,57.94,91,85,3.06,CA,1662893210
deputatskiy,69.3,139.9,32.7,80,31,5.21,RU,1662892980
hermanus,-34.4187,19.2345,56.82,66,100,13.15,ZA,1662893211
hami,42.8,93.45,94.77,10,0,0.96,CN,1662893212
vardo,70.3705,31.1107,44.58,100,100,4.61,NO,1662893213
cabo san lucas,22.8909,-109.9124,79.52,84,11,10.8,MX,1662893213
metro,-5.1131,105.3067,77.9,85,82,6.98,ID,1662893119
port alfred,-33.5906,26.891,70.18,59,100,8.99,ZA,1662893214
los llanos de aridane,28.6585,-17.9182,74.95,89,20,6.91,ES,1662892957
tasiilaq,65.6145,-37.6368,42.96,73,98,6.4,GL,1662892720
fonte boa,-2.4959,-66.2662,72.23,96,34,2.35,BR,1662893215
pasan,22.85,82.2,79.77,81,96,7.36,IN,1662893215
castro,-24.7911,-50.0119,54.52,97,100,6.15,BR,1662892733
dingle,10.9995,122.6711,78.44,86,77,4.41,PH,1662892686
dourbali,11.8091,15.8632,86.95,59,84,6.62,TD,1662893216
cidreira,-30.1811,-50.2056,52.02,71,0,4.43,BR,1662892844
pandan,14.0453,124.1694,83.39,79,86,4.27,PH,1662893217
ponta do sol,32.6667,-17.1,78.01,92,100,8.43,PT,1662893218
dalvik,65.9702,-18.5286,46.33,97,100,6.11,IS,1662893218
cape town,-33.9258,18.4232,64.11,62,75,12.66,ZA,1662892506
alta floresta,-9.8756,-56.0861,76.28,30,33,2.04,BR,1662893219
oktyabrskiy,54.4815,53.471,56.7,54,90,9.17,RU,1662893184
elat,29.5581,34.9482,91.24,35,0,13.8,IL,1662893220
bull savanna,17.8868,-77.5902,76.42,81,28,6.49,JM,1662893221
mataura,-46.1927,168.8643,40.33,97,68,3.38,NZ,1662893222
barrow,71.2906,-156.7887,33.82,93,100,16.11,US,1662893224
bukachacha,52.9833,116.9167,45.28,77,61,3.09,RU,1662893225
saint anthony,45.0205,-93.218,52.75,92,0,0.0,US,1662893225
nishihara,26.1842,127.7558,82.45,89,75,12.66,JP,1662893226
thompson,55.7435,-97.8558,51.96,71,40,8.05,CA,1662892709
nikolskoye,59.7035,30.7861,61.88,40,5,5.32,RU,1662892681
kodiak,57.79,-152.4072,53.11,82,100,5.75,US,1662892684
busselton,-33.65,115.3333,55.4,82,18,0.69,AU,1662893228
palmer,42.1584,-72.3287,66.18,82,100,0.0,US,1662893151
narsaq,60.9167,-46.05,39.42,63,99,1.36,GL,1662893230
olonets,60.9847,32.9698,59.4,48,28,3.4,RU,1662893231
victoria,22.2855,114.1577,87.96,78,33,11.01,HK,1662893170
vaini,-21.2,-175.2,73.56,94,20,4.61,TO,1662893232
bambous virieux,-20.3428,57.7575,77.25,57,75,17.27,MU,1662892787
grajau,-5.8194,-46.1386,83.97,36,22,7.99,BR,1662893167
chipinge,-20.1883,32.6236,87.93,10,0,5.53,ZW,1662893234
batagay,67.6333,134.6333,41.5,79,100,3.76,RU,1662893039
neftcala,39.3742,49.2472,77.74,50,91,14.29,AZ,1662893236
dalbandin,28.8947,64.4101,101.52,7,0,4.09,PK,1662893237
namie,37.4833,141.0,70.72,88,97,6.13,JP,1662893237
portland,45.5234,-122.6762,70.63,59,100,3.44,US,1662893041
terre haute,39.4667,-87.4139,71.87,90,100,5.75,US,1662893238
lazaro cardenas,17.9583,-102.2,77.86,88,100,4.59,MX,1662893239
auray,47.6703,-2.9918,75.54,79,27,9.19,FR,1662893240
puerto ayora,-0.7393,-90.3518,66.54,86,93,5.01,EC,1662893241
tazovskiy,67.4667,78.7,40.32,82,100,8.25,RU,1662893242
hilo,19.7297,-155.09,72.25,82,0,8.05,US,1662892974
bialystok,53.1333,23.15,48.96,92,100,5.99,PL,1662893244
mount gambier,-37.8333,140.7667,44.26,91,98,4.65,AU,1662892924
bredasdorp,-34.5322,20.0403,56.84,62,100,13.44,ZA,1662893104
husavik,66.0449,-17.3389,49.55,97,100,4.09,IS,1662892929
copiapo,-27.3667,-70.3333,49.69,81,30,2.57,CL,1662893245
saskylakh,71.9167,114.0833,35.76,82,100,9.04,RU,1662893246
maltahohe,-24.8333,16.9833,86.0,9,1,11.56,NA,1662893254
san pedro,14.35,121.0167,83.43,80,40,13.8,PH,1662893000
deurne,51.2085,4.4719,72.91,80,75,4.0,BE,1662893256
tromso,69.6496,18.957,50.02,81,75,12.66,NO,1662892743
robe,-37.1833,139.75,52.0,75,100,11.59,AU,1662893257
clyde river,70.4692,-68.5914,34.03,100,75,3.44,CA,1662892873
punta arenas,-53.15,-70.9167,39.31,87,20,11.5,CL,1662893257
aripuana,-9.1667,-60.6333,77.76,58,17,1.21,BR,1662893258
praia da vitoria,38.7333,-27.0667,72.75,94,75,27.54,PT,1662892828
vanino,49.0869,140.2543,59.07,93,58,1.7,RU,1662893258
ilulissat,69.2167,-51.1,48.22,87,75,10.36,GL,1662892780
saldanha,-33.0117,17.9442,64.45,69,100,19.66,ZA,1662892664
aksarka,66.5606,67.7975,47.66,73,100,11.83,RU,1662892982
ciudad bolivar,8.1222,-63.5497,76.69,85,6,5.08,VE,1662892962
znamenskoye,57.1281,73.8282,52.88,53,50,9.35,RU,1662892831
tupik,54.4253,119.9327,42.73,81,98,1.97,RU,1662893262
severo-kurilsk,50.6789,156.125,54.68,68,8,13.78,RU,1662892755
codrington,-38.2667,141.9667,48.79,69,100,9.8,AU,1662893264
kalianget,-7.05,113.9333,82.0,74,67,12.03,ID,1662893255
bonavista,48.6499,-53.1147,58.46,95,100,35.12,CA,1662893268
cullinan,-25.6709,28.5236,85.82,9,4,9.89,ZA,1662893269
talant,47.3369,5.0089,75.42,60,40,8.05,FR,1662893270
muzaffarabad,34.37,73.4711,79.81,71,87,1.25,PK,1662893273
yellowknife,62.456,-114.3525,46.92,76,75,18.41,CA,1662893219
meulaboh,4.1363,96.1285,81.54,73,85,5.14,ID,1662893274
carnarvon,-24.8667,113.6333,69.31,68,0,11.45,AU,1662893274
hambantota,6.1241,81.1185,91.74,55,40,17.27,LK,1662893210
hofn,64.2539,-15.2082,51.96,88,100,7.2,IS,1662892955
sitka,57.0531,-135.33,49.89,87,75,3.44,US,1662893275
mokhsogollokh,61.4681,128.9203,38.14,72,56,2.51,RU,1662893276
sao filipe,14.8961,-24.4956,79.65,83,25,4.09,CV,1662892742
sharlyk,52.9167,54.75,55.49,48,94,9.98,RU,1662893276
peruibe,-24.32,-46.9983,61.61,85,100,3.94,BR,1662893277
maningrida,-12.0667,134.2667,77.43,85,88,3.71,AU,1662893277
bandarbeyla,9.4942,50.8122,89.4,52,88,24.61,SO,1662893278
chute-aux-outardes,49.1168,-68.399,46.38,100,100,0.0,CA,1662893278
chilca,-12.5211,-76.7372,59.13,84,93,3.02,PE,1662893279
gigmoto,13.7796,124.39,83.07,80,94,0.4,PH,1662892983
evensk,61.95,159.2333,47.79,83,100,4.83,RU,1662892688
san ignacio,17.1561,-89.0714,73.69,99,100,1.86,BZ,1662893126
upernavik,72.7868,-56.1549,40.75,96,100,15.77,GL,1662893281
eureka,40.8021,-124.1637,58.68,91,89,1.74,US,1662892888
luderitz,-26.6481,15.1594,72.82,43,13,26.73,NA,1662893282
saint-joseph,-21.3667,55.6167,75.58,76,40,10.78,RE,1662892776
carupano,10.6678,-63.2585,78.46,84,43,5.68,VE,1662893283
jalu,29.0331,21.5482,95.09,21,0,8.21,LY,1662893283
pisco,-13.7,-76.2167,53.02,87,20,2.3,PE,1662892761
ayan,56.45,138.1667,50.85,80,61,6.53,RU,1662892695
vila franca do campo,37.7167,-25.4333,73.2,85,100,19.89,PT,1662892969
salalah,17.0151,54.0924,84.29,79,75,12.66,OM,1662892824
torbay,47.6666,-52.7314,58.75,97,100,36.82,CA,1662893285
arraial do cabo,-22.9661,-42.0278,67.96,83,100,12.66,BR,1662893289
kapuskasing,49.4169,-82.4331,51.89,100,100,1.14,CA,1662893292
doka,13.5167,35.7667,83.84,67,61,8.59,SD,1662893293
ribeira grande,38.5167,-28.7,72.0,83,75,21.85,PT,1662893201
iralaya,15.0,-83.2333,80.4,84,97,8.43,HN,1662893294
talara,-4.5772,-81.2719,62.35,86,52,16.44,PE,1662893295
hithadhoo,-0.6,73.0833,82.26,70,45,14.58,MV,1662893188
chelno-vershiny,54.4333,51.1,56.86,52,84,8.55,RU,1662892899
minab,27.1467,57.0801,100.72,37,2,6.91,IR,1662893297
vila velha,-20.3297,-40.2925,71.55,81,100,3.44,BR,1662892856
cherskiy,68.75,161.3,48.0,80,100,6.33,RU,1662893298
punto fijo,11.6956,-70.1996,81.75,79,84,20.83,VE,1662893301
nizhneivkino,58.194,49.5214,50.54,72,99,4.18,RU,1662893302
kupang,-10.1667,123.5833,78.39,78,26,10.54,ID,1662893098
moses lake,47.1301,-119.2781,59.68,35,0,6.91,US,1662893304
avarua,-21.2078,-159.775,75.25,83,20,10.36,CK,1662893304
arawa,-6.2132,155.5367,75.76,89,10,3.69,PG,1662893035
barra,-11.0894,-43.1417,78.84,48,8,7.31,BR,1662893068
iqaluit,63.7506,-68.5145,44.33,87,100,11.5,CA,1662893305
kurumkan,54.3,110.3,51.44,56,62,1.16,RU,1662893306
pesaro,43.9036,12.8903,81.12,66,3,4.0,IT,1662893306
kirishi,59.4471,32.0205,61.54,39,6,5.12,RU,1662893195
guerrero negro,27.9769,-114.0611,74.61,86,7,5.53,MX,1662892981
zeya,53.75,127.2667,52.27,70,100,5.14,RU,1662893312
kisangani,0.5167,25.2,83.44,74,34,2.93,CD,1662893313
esperance,-33.8667,121.9,60.3,75,50,18.75,AU,1662893313
chuy,-33.6971,-53.4616,44.44,78,0,2.62,UY,1662892909
port-gentil,-0.7193,8.7815,84.16,65,75,16.11,GA,1662892837
sinnamary,5.3833,-52.95,79.45,81,85,4.99,GF,1662892813
kahului,20.8947,-156.47,78.84,64,0,5.99,US,1662893315
digha,21.6833,87.55,78.44,96,100,9.66,IN,1662893315
dangriga,16.9692,-88.2321,81.46,84,100,6.69,BZ,1662893316
mayo,38.8876,-76.5119,74.03,89,100,9.62,US,1662893316
novosmolinskiy,56.2841,43.0507,56.68,41,35,1.79,RU,1662893317
hasaki,35.7333,140.8333,75.6,85,91,20.83,JP,1662892755
ascension,30.2169,-90.9001,73.08,98,0,0.0,US,1662893318
hokitika,-42.7167,170.9667,48.63,82,100,4.76,NZ,1662893319
hervey bay,-25.2986,152.8535,65.01,74,28,13.0,AU,1662893320
bulgan,48.8125,103.5347,58.39,76,34,3.58,MN,1662893321
pevek,69.7008,170.3133,41.43,75,74,2.42,RU,1662892783
yinchuan,38.4681,106.2731,75.87,35,0,8.97,CN,1662893024
anadyr,64.75,177.4833,43.3,70,75,6.71,RU,1662893322
geraldton,-28.7667,114.6,66.61,72,0,9.22,AU,1662892988
aklavik,68.2191,-135.0107,42.31,93,100,5.08,CA,1662892826
carutapera,-1.195,-46.02,82.06,72,1,6.24,BR,1662893324
conceicao do araguaia,-8.2578,-49.2647,86.07,26,35,3.38,BR,1662893325
dikson,73.5069,80.5464,39.63,78,100,23.22,RU,1662892818
laguna,38.421,-121.4238,75.18,64,40,6.91,US,1662893326
lima,-12.0432,-77.0282,58.89,86,100,3.44,PE,1662893018
hualmay,-11.0964,-77.6139,59.27,85,50,8.3,PE,1662893154
betioky,-23.7167,44.3833,93.47,12,0,5.12,MG,1662893327
baykit,61.67,96.37,47.03,92,97,2.1,RU,1662893327
sioux lookout,50.1001,-91.917,41.07,100,0,0.0,CA,1662893327
berezovka,53.7214,25.4993,49.78,96,100,4.56,BY,1662893329
talnakh,69.4865,88.3972,35.87,99,100,5.28,RU,1662893330
floro,61.5996,5.0328,60.87,72,75,4.61,NO,1662893331
tiksi,71.6872,128.8694,37.62,97,100,12.03,RU,1662892792
boo,59.3333,18.2833,59.99,74,100,5.75,SE,1662893332
foumban,5.7291,10.9001,70.88,86,90,2.48,CM,1662893332
bubaque,11.2833,-15.8333,79.25,82,97,9.62,GW,1662893333
brigantine,39.4101,-74.3646,74.01,88,40,10.0,US,1662893334
kollegal,12.15,77.1167,79.45,67,97,16.73,IN,1662893335
provideniya,64.3833,-173.3,43.63,87,100,15.08,RU,1662892885
along,28.1667,94.7667,84.74,73,0,3.31,IN,1662893336
bedele,8.456,36.353,66.96,84,84,1.36,ET,1662893039
lovozero,68.005,35.0117,53.33,64,100,3.31,RU,1662893336
nakamura,32.9833,132.9333,75.74,92,85,3.56,JP,1662893320
nepa nagar,21.4667,76.4,85.15,76,99,8.7,IN,1662893337
aloleng,16.1307,119.7824,82.26,75,58,6.15,PH,1662893338
san quintin,30.4833,-115.95,73.54,85,0,4.16,MX,1662893339
dunedin,-45.8742,170.5036,48.79,90,100,4.0,NZ,1662892973
muros,42.7762,-9.0603,79.09,64,89,6.13,ES,1662893339
kemijarvi,66.7131,27.4306,56.8,59,71,9.73,FI,1662893340
ulladulla,-35.35,150.4667,48.78,61,0,11.14,AU,1662893304
morondava,-20.2833,44.2833,80.2,52,0,14.52,MG,1662893340
east london,-33.0153,27.9116,68.94,56,20,16.11,ZA,1662893246
george,-33.963,22.4617,53.15,100,100,16.11,ZA,1662893116
bilma,18.6853,12.9164,100.31,10,23,3.4,NE,1662893341
port lincoln,-34.7333,135.8667,52.07,76,4,6.71,AU,1662892952
madhoganj,27.1167,80.15,93.47,48,70,7.09,IN,1662893342
iranshahr,27.2025,60.6848,107.94,13,0,4.61,IR,1662893175
iskateley,67.6803,53.1512,51.37,67,99,15.5,RU,1662893343
niquelandia,-14.4739,-48.4597,82.71,20,57,1.79,BR,1662893344
baglan,36.1307,68.7083,88.07,24,0,17.25,AF,1662893198
kavieng,-2.5744,150.7967,82.47,66,14,16.58,PG,1662893345
turkmenabat,39.0733,63.5786,75.18,17,0,20.71,TM,1662893345
faya,18.3851,42.4509,86.11,22,57,6.42,SA,1662892759
kavaratti,10.5669,72.642,80.35,85,100,20.22,IN,1662893144
saint-pierre,-21.3393,55.4781,74.88,64,20,6.91,RE,1662893346
chernyshevskiy,63.0128,112.4714,42.15,89,100,4.25,RU,1662893347
tarakan,3.3,117.6333,80.55,74,97,5.46,ID,1662893107
flinders,-34.5833,150.8552,58.17,59,0,14.0,AU,1662892979
saint-philippe,-21.3585,55.7679,74.79,77,50,13.33,RE,1662893348
tuktoyaktuk,69.4541,-133.0374,37.85,88,100,7.85,CA,1662893348
batticaloa,7.7102,81.6924,85.12,66,64,8.63,LK,1662893348
arzgir,45.3728,44.2206,75.61,32,93,19.35,RU,1662893349
khatanga,71.9667,102.5,38.59,73,99,3.83,RU,1662893349
natchitoches,31.7668,-93.1335,70.65,100,0,3.44,US,1662893349
zhigansk,66.7697,123.3711,38.66,72,100,6.55,RU,1662892984
nioro,13.35,-15.75,77.45,81,100,3.42,GM,1662893350
sembakung,3.8167,117.25,75.78,93,100,1.79,ID,1662893351
katsuura,35.1333,140.3,75.96,85,72,20.0,JP,1662893144
venado tuerto,-33.7456,-61.9688,43.34,59,24,7.18,AR,1662893352
moyale,3.5167,39.0584,76.57,47,99,9.22,KE,1662893323
sangar,63.9242,127.4739,36.45,82,84,3.78,RU,1662893353
sarankhola,22.3082,89.7897,76.55,97,100,6.96,BD,1662893353
havre-saint-pierre,50.2334,-63.5986,55.76,100,100,4.61,CA,1662892834
saint-augustin,51.226,-58.6502,53.82,77,0,3.96,CA,1662892989
touros,-5.1989,-35.4608,80.82,64,24,15.52,BR,1662892857
rabo de peixe,37.8,-25.5833,71.28,88,75,17.27,PT,1662893355
poya,-21.35,165.15,72.57,90,23,4.18,NC,1662893355
kristiansund,63.1115,7.732,60.85,67,75,4.61,NO,1662893356
brae,60.3964,-1.353,57.42,73,100,12.86,GB,1662893357
ahuimanu,21.4447,-157.8378,76.86,83,100,0.0,US,1662892760
corrientes,-27.4806,-58.8341,45.99,85,0,4.61,AR,1662893358
vilhena,-12.7406,-60.1458,72.27,51,25,3.87,BR,1662893358
sakakah,29.9697,40.2064,108.97,8,0,7.96,SA,1662892785
jintur,19.6167,76.7,75.07,90,100,10.38,IN,1662893238
shush,32.1942,48.2436,112.14,4,0,7.99,IR,1662893359
solnechnyy,50.7214,136.6319,57.81,98,73,2.84,RU,1662892794
kaniama,-7.5667,24.1833,88.74,38,43,4.45,CD,1662893359
barabai,-2.5833,115.3833,76.37,88,100,1.61,ID,1662893361
prince albert,53.2001,-105.7677,40.95,75,0,3.44,CA,1662893362
otane,-39.8833,176.6333,52.02,96,95,4.52,NZ,1662893362
fortuna,40.5982,-124.1573,57.65,92,83,1.81,US,1662893363
belmonte,-15.8631,-38.8828,73.51,62,7,5.03,BR,1662893025
iraray,8.9936,118.0511,80.38,82,100,2.91,PH,1662893364
tomatlan,19.9333,-105.25,74.97,96,99,2.48,MX,1662893365
nanortalik,60.1432,-45.2371,43.02,84,96,8.3,GL,1662893366
naze,28.3667,129.4833,81.52,84,72,13.51,JP,1662892575
moranbah,-22.0016,148.0466,68.29,41,0,10.56,AU,1662893367
omboue,-1.5746,9.2618,80.4,68,64,9.57,GA,1662893367
komsomolskiy,40.4272,71.7189,77.72,29,40,11.5,UZ,1662893368
jacareacanga,-6.2222,-57.7528,76.6,55,0,1.52,BR,1662893369
dhandhuka,22.3667,71.9833,95.86,48,94,6.38,IN,1662893370
praia,14.9215,-23.5087,81.41,81,99,11.36,CV,1662892808
conde,-7.2597,-34.9075,71.06,100,75,0.0,BR,1662893165
sembe,1.6481,14.5806,77.32,84,81,5.28,CG,1662893371
clonakilty,51.6231,-8.8706,64.09,98,100,14.83,IE,1662893371
buncrana,55.1333,-7.45,62.37,79,100,12.75,IE,1662893372
makat,47.6469,53.3463,64.24,27,2,8.03,KZ,1662893372
yashalta,46.3395,42.2762,74.84,22,63,20.04,RU,1662893373
kuloy,61.0305,42.4925,48.76,90,98,2.66,RU,1662893374
marovoay,-16.1,46.6333,93.83,23,13,5.17,MG,1662893374
mayumba,-3.432,10.6554,75.88,83,94,8.48,GA,1662893375
matara,5.9485,80.5353,81.84,77,53,12.82,LK,1662893106
richards bay,-28.783,32.0377,78.93,58,11,12.19,ZA,1662893265
kaitangata,-46.2817,169.8464,44.49,94,49,5.57,NZ,1662893376
les cayes,18.2,-73.75,79.84,81,96,3.15,HT,1662893376
birnin kebbi,12.4539,4.1975,83.07,63,77,4.54,NG,1662893377
kuruman,-27.4524,23.4325,84.65,11,23,24.38,ZA,1662892782
glasgow,55.8652,-4.2576,65.19,81,100,5.75,GB,1662893379
gaoyou,32.7858,119.4278,77.23,58,7,5.64,CN,1662893379
mahebourg,-20.4081,57.7,77.29,57,75,17.27,MU,1662893381
cordoba,-31.4135,-64.1811,49.05,37,0,14.97,AR,1662893267
the valley,18.217,-63.0578,84.09,74,44,11.05,AI,1662893381
wanparti,16.3667,78.0667,76.68,85,100,10.54,IN,1662893382
vao,-22.6667,167.4833,73.15,82,56,4.61,NC,1662892915
havelock,34.8791,-76.9013,79.95,95,98,5.55,US,1662893384
calvinia,-31.4707,19.776,61.54,38,77,12.86,ZA,1662893385
moree,-29.4667,149.85,54.14,65,100,7.63,AU,1662893385
ballina,-28.8667,153.5667,61.02,81,79,8.52,AU,1662893385
santiago del estero,-27.7951,-64.2615,48.74,31,1,6.46,AR,1662893386
la orilla,17.9833,-102.2333,77.11,90,100,4.94,MX,1662893128
svetlaya,46.5389,138.3297,59.5,89,74,8.32,RU,1662893387
alofi,-19.0595,-169.9187,69.69,94,73,0.0,NU,1662893363
rexburg,43.826,-111.7897,45.82,70,0,4.61,US,1662893120
mampong,7.0627,-1.4001,83.37,58,71,3.29,GH,1662893225
bocaiuva,-17.1078,-43.815,64.11,24,47,3.09,BR,1662893195
laje,-10.1833,-40.9667,69.57,74,68,5.91,BR,1662893390
kargil,34.5667,76.1,65.48,28,68,7.92,IN,1662893390
marrakesh,31.6315,-8.0083,89.67,48,75,3.44,MA,1662893145
doha,25.2867,51.5333,106.11,44,11,8.05,QA,1662893124
san blas,21.5167,-105.2667,78.76,91,100,2.48,MX,1662893393
lagoa,39.05,-27.9833,72.0,80,100,28.54,PT,1662893393
killybegs,54.6333,-8.45,60.51,80,100,10.78,IE,1662893395
waingapu,-9.6567,120.2641,79.95,72,27,10.0,ID,1662893385
nago,26.5881,127.9761,83.25,88,100,11.16,JP,1662893396
haines junction,60.7522,-137.5108,26.55,93,21,0.0,CA,1662893396
jiayuguan,39.8167,98.3,81.52,7,0,12.86,CN,1662893396
shu,43.5983,73.7614,72.75,18,74,17.69,KZ,1662893397
bengkulu,-3.8004,102.2655,79.7,76,78,2.17,ID,1662893149
kondinskoye,59.6481,67.41,51.87,55,69,10.65,RU,1662893398
benatky nad jizerou,50.2909,14.8234,67.48,58,57,13.71,CZ,1662893398
grimshaw,56.1834,-117.6027,47.16,61,100,6.91,CA,1662893399
stara zagora,42.4328,25.6419,83.12,33,38,2.44,BG,1662893236
quballat,36.5418,9.6633,92.21,28,4,1.28,TN,1662893401
kashi,39.4547,75.9797,88.81,15,0,11.18,CN,1662893402
ibimirim,-8.5406,-37.6903,73.63,69,65,8.21,BR,1662893403
mar del plata,-38.0023,-57.5575,46.09,71,0,6.91,AR,1662893403
aravete,59.1403,25.7485,62.4,35,0,6.96,EE,1662893404
guacimo,10.2104,-83.6807,72.36,94,100,2.53,CR,1662893404
lavrentiya,65.5833,-171.0,42.96,81,100,11.65,RU,1662893404
moussoro,13.6408,16.4901,90.63,43,95,7.49,TD,1662893405
zanesville,39.9404,-82.0132,66.79,96,100,0.0,US,1662893407
sibolga,1.7427,98.7792,80.46,79,96,0.83,ID,1662893185
korla,41.7597,86.1469,93.13,10,79,3.62,CN,1662893408
chagoda,59.164,35.3285,60.35,40,2,5.03,RU,1662893409
bilibino,68.0546,166.4372,49.19,56,100,3.13,RU,1662893410
sabha,27.0377,14.4283,92.28,18,0,7.11,LY,1662893410
mizan teferi,6.9833,35.5833,72.86,69,97,2.15,ET,1662893412
beringovskiy,63.05,179.3167,45.28,84,100,20.42,RU,1662893413
dunmore east,52.1514,-6.9861,63.21,82,75,18.41,IE,1662893414
qaanaaq,77.484,-69.3632,37.26,98,100,8.39,GL,1662893414
vaitape,-16.5167,-151.75,78.78,70,9,19.44,PF,1662893415
doctor arroyo,23.6667,-100.1833,61.2,83,16,2.1,MX,1662892972
lata,40.1629,-8.3327,81.07,31,75,6.55,PT,1662893416
kendari,-3.945,122.4989,75.65,89,28,3.22,ID,1662893417
porto novo,6.4965,2.6036,83.07,69,99,7.25,BJ,1662893417
coffs harbour,-30.3,153.1333,56.14,82,47,4.61,AU,1662893417
derzhavinsk,51.1,66.3167,49.03,75,100,22.93,KZ,1662893417
mutsu,41.2894,141.2169,67.93,93,94,10.18,JP,1662893418
dondo,-19.6094,34.7431,91.94,31,0,7.81,MZ,1662893199
huarmey,-10.0681,-78.1522,60.03,86,36,8.01,PE,1662893165
itabira,-19.6192,-43.2269,72.64,42,10,2.66,BR,1662893419
saint george,37.1041,-113.5841,68.59,77,0,0.0,US,1662893420
ngunguru,-35.6167,174.5,60.8,88,100,19.04,NZ,1662893422
nizhneudinsk,54.9076,99.0276,58.42,65,23,3.29,RU,1662893422
zaysan,47.4667,84.8667,60.49,86,100,3.51,KZ,1662893423
khatassy,61.9036,129.6383,41.99,73,57,4.47,RU,1662893424
sucre,-19.0333,-65.2627,48.49,69,62,1.14,BO,1662893424
porto santo,33.072,-16.3415,77.38,78,20,5.75,PT,1662893424
domoni,-12.2569,44.5319,79.29,65,56,2.71,KM,1662893425
walvis bay,-22.9575,14.5053,55.09,65,45,12.5,NA,1662893426
quelimane,-17.8786,36.8883,89.06,34,0,9.44,MZ,1662893428
aksu,41.1231,80.2644,92.25,9,87,10.67,CN,1662893428
marystown,47.1666,-55.1483,60.26,87,100,34.87,CA,1662893428
iquique,-20.2208,-70.1431,59.04,76,30,6.64,CL,1662893429
avera,33.194,-82.5271,73.38,95,87,4.5,US,1662893429
ammon,43.4696,-111.9666,46.35,69,0,5.75,US,1662893430
maceio,-9.6658,-35.7353,72.84,94,40,4.61,BR,1662893431
goianesia,-15.3175,-49.1175,80.74,20,54,1.7,BR,1662893431
kautokeino,69.0125,23.0412,49.3,73,100,1.83,NO,1662893432
batagay-alyta,67.8006,130.4114,38.48,52,100,10.2,RU,1662893433
gatton,-27.55,152.2833,60.64,60,95,3.94,AU,1662893222
sola,-13.8833,167.55,80.06,73,8,18.39,VU,1662892906
constantine,36.365,6.6147,89.01,35,0,5.75,DZ,1662893434
beloha,-25.1667,45.05,88.3,22,0,10.45,MG,1662893324
wodonga,-36.1167,146.8833,47.26,86,34,1.32,AU,1662893239
parana,-31.732,-60.5238,50.58,73,48,6.53,AR,1662893436
konza,-1.7426,37.1294,76.77,40,48,9.8,KE,1662893436
erdemli,36.605,34.3084,87.71,53,0,6.53,TR,1662893144
konosha,60.9736,40.257,55.98,52,75,4.68,RU,1662893438
cabedelo,-6.9811,-34.8339,72.27,75,55,13.58,BR,1662893438
souillac,-20.5167,57.5167,77.38,57,75,17.27,MU,1662893439
christchurch,-43.5333,172.6333,48.94,93,75,5.75,NZ,1662893423
vilyuysk,63.7553,121.6247,38.55,71,99,3.96,RU,1662893439
mizdah,31.4451,12.9801,95.65,16,16,5.48,LY,1662893323
bamiantong,44.9333,130.5333,66.34,85,94,2.51,CN,1662893440
bombo,-8.6131,119.0131,77.67,77,22,4.36,ID,1662893440
anqing,30.5092,117.0506,80.26,49,12,7.23,CN,1662893441
abu kamal,34.4506,40.9171,103.03,13,0,4.52,SY,1662893441
riacho de santana,-13.6092,-42.9389,79.54,28,4,1.9,BR,1662893442
darnah,32.767,22.6367,83.71,64,0,18.86,LY,1662893167
ostrovnoy,68.0531,39.5131,51.15,74,100,10.2,RU,1662893443
upata,8.0086,-62.3989,75.2,91,64,2.48,VE,1662893444
suntar,62.1444,117.6319,43.0,91,84,4.7,RU,1662893444
charters towers,-20.1,146.2667,69.13,55,1,12.3,AU,1662893032
inirida,3.8653,-67.9239,70.79,99,72,1.68,CO,1662893445
marau,-28.4492,-52.2,45.28,72,30,6.17,BR,1662893446
maniitsoq,65.4167,-52.9,42.84,93,100,30.82,GL,1662893446
taltal,-25.4,-70.4833,53.06,77,37,3.58,CL,1662893447
oistins,13.0667,-59.5333,82.49,74,20,13.8,BB,1662893447
kamenka,51.3223,42.7678,63.23,31,64,9.82,RU,1662893447
koulikoro,14.0,-7.75,85.71,60,36,8.48,ML,1662893207
tighina,46.8306,29.4711,72.37,46,50,10.0,MD,1662893448
eenhana,-17.4667,16.3333,94.46,8,0,4.68,NA,1662893406
kaitong,44.8135,123.15,69.46,58,59,9.46,CN,1662893449
sao jose da coroa grande,-8.8978,-35.1478,77.59,70,27,10.71,BR,1662893449
swellendam,-34.0226,20.4417,54.61,76,100,7.05,ZA,1662893450
boa vista,2.8197,-60.6733,78.78,81,75,2.3,BR,1662893450
hay river,60.8156,-115.7999,46.38,76,20,8.05,CA,1662893451
gilbues,-9.8317,-45.3439,79.79,30,21,7.85,BR,1662893451
dwarka,22.2394,68.9678,86.9,72,94,8.3,IN,1662893451
guarapari,-20.6667,-40.4975,70.9,89,94,15.23,BR,1662893451
lixourion,38.2019,20.4314,83.37,59,0,10.02,GR,1662893452
umm kaddadah,13.6017,26.6876,94.37,30,56,4.9,SD,1662893452
biak,-0.9131,122.8766,73.96,90,100,6.58,ID,1662893453
kungurtug,50.5994,97.5228,65.34,37,75,2.39,RU,1662892946
san cristobal,7.7669,-72.225,75.38,94,62,2.73,VE,1662893454
karaton,-6.3424,106.1045,75.94,90,79,2.55,ID,1662893454
igarka,67.4667,86.5833,45.82,51,89,7.9,RU,1662893455
lasa,46.6166,10.7002,65.7,46,19,5.14,IT,1662893455
krabi,8.0726,98.9105,86.2,70,20,4.61,TH,1662893278
chingirlau,51.095,54.0814,60.84,34,32,10.71,KZ,1662892962
ratangarh,28.0833,74.6,100.33,28,51,7.29,IN,1662893272
ewa beach,21.3156,-158.0072,76.98,80,0,3.44,US,1662893457
cascais,38.6979,-9.4215,78.15,74,40,8.99,PT,1662893458
isabela,6.7085,121.9711,82.45,82,96,4.47,PH,1662893333
hwange,-18.3693,26.5019,92.62,11,0,5.32,ZW,1662893353
port hueneme,34.1478,-119.1951,77.95,88,100,0.0,US,1662893459
sorland,67.667,12.6934,51.66,75,100,12.71,NO,1662893034
iquitos,-3.7481,-73.2472,71.64,100,75,4.61,PE,1662893459
baculin,7.4525,126.5842,79.65,82,99,7.11,PH,1662893460
san francisco,37.7749,-122.4194,71.31,84,75,1.99,US,1662893303
grand gaube,-20.0064,57.6608,77.4,58,3,10.0,MU,1662893460
malanje,-9.5402,16.341,89.47,25,2,3.53,AO,1662893461
airai,-8.9266,125.4092,61.99,84,85,1.12,TL,1662892951
santiago,-33.4569,-70.6483,50.85,87,100,6.91,CL,1662893462
nosy varika,-20.5833,48.5333,74.77,66,13,9.26,MG,1662893324
longhua,23.6137,114.1919,84.65,56,79,0.89,CN,1662893464
austin,30.2672,-97.7431,76.75,82,40,0.0,US,1662893464
lompoc,34.6391,-120.4579,73.56,84,0,4.61,US,1662893465
zaozerne,45.1582,33.2787,70.48,53,92,4.38,UA,1662893466
garissa,-0.4536,39.6401,92.5,33,27,19.95,KE,1662893204
san jeronimo,-11.9472,-75.2829,52.21,64,100,0.98,PE,1662893466
kedrovyy,56.1667,91.8167,62.87,59,52,1.77,RU,1662893467
zaraza,9.3503,-65.3245,73.89,87,4,1.61,VE,1662893468
gambela,8.25,34.5833,88.81,52,73,3.44,ET,1662893469
soavinandriana,-19.1667,46.7333,79.16,15,1,6.55,MG,1662893275
alice springs,-23.7,133.8833,69.35,40,100,16.11,AU,1662893346
lorengau,-2.0226,147.2712,80.4,76,100,4.29,PG,1662893470
pokhara,28.2333,83.9833,80.19,78,48,2.66,NP,1662893280
kloulklubed,7.0419,134.2556,75.7,70,88,6.51,PW,1662893471
nelson bay,-32.7167,152.15,60.85,82,10,5.01,AU,1662892998
maldonado,-34.6667,-54.9167,42.22,73,0,2.13,UY,1662893473
tigil,57.8,158.6667,46.47,93,5,16.33,RU,1662893473
khani,41.9563,42.9566,78.37,33,3,6.2,GE,1662893473
san patricio,28.017,-97.5169,78.66,76,2,1.25,US,1662892994
kosa,59.9445,54.9977,47.57,81,100,3.67,RU,1662893474
ayacucho,-13.1583,-74.2239,50.67,81,48,1.95,PE,1662893475
san ramon,37.7799,-121.978,70.39,65,0,4.61,US,1662893475
klyuchi,52.2667,79.1667,69.31,39,81,8.55,RU,1662893476
rosarito,32.3333,-117.0333,74.41,89,78,0.85,MX,1662893478
esso,55.9333,158.7,39.36,89,18,3.96,RU,1662893478
norman wells,65.282,-126.8329,46.44,93,100,6.91,CA,1662893480
scottsboro,34.6723,-86.0341,73.53,100,100,0.0,US,1662893480
gushikawa,26.3544,127.8686,82.4,85,40,11.5,JP,1662893481
wamba,8.9333,8.6,77.34,82,95,3.44,NG,1662893329
beruwala,6.4788,79.9828,80.89,78,65,10.07,LK,1662893296
mahibadhoo,3.7833,72.9667,81.39,80,79,13.96,MV,1662893482
palafrugell,41.9174,3.1631,83.16,46,5,7.0,ES,1662893483
rio branco,-9.9747,-67.81,74.01,94,14,1.14,BR,1662893484
riohacha,11.5444,-72.9072,80.24,84,84,8.5,CO,1662893484
monrovia,6.3005,-10.7969,78.91,82,91,11.27,LR,1662893485
shamkhal,43.0596,47.3373,71.58,62,87,24.43,RU,1662893485
mutoko,-17.397,32.2268,84.25,14,0,7.25,ZW,1662893486
tafresh,34.692,50.013,77.02,28,0,7.36,IR,1662893487
yumen,40.2833,97.2,84.18,6,0,17.07,CN,1662893488
faanui,-16.4833,-151.75,78.69,71,9,19.48,PF,1662893488
la ferte-bernard,48.1863,0.6536,73.02,50,44,6.82,FR,1662893489
lerwick,60.1545,-1.1494,59.0,80,100,13.67,GB,1662893489
benjamin constant,-4.3831,-70.0311,71.73,99,80,2.33,BR,1662893490
zhangye,38.9342,100.4517,81.73,11,0,8.57,CN,1662893490
huesca,42.1362,-0.4087,90.1,54,0,9.22,ES,1662893491
juneau,58.3019,-134.4197,50.22,97,75,0.0,US,1662893492
cravo norte,6.3017,-70.2041,71.58,92,97,3.42,CO,1662893492
mackenzie,55.2999,-123.1698,43.02,93,40,2.3,CA,1662892927
adrar,20.5022,-10.0711,96.13,28,91,6.2,MR,1662893493
pontianak,-0.0333,109.3333,87.78,70,40,8.05,ID,1662893494
berlevag,70.8578,29.0864,44.6,81,100,4.61,NO,1662893494
tutoia,-2.7619,-42.2744,80.92,72,16,13.15,BR,1662893496
navalmoral de la mata,39.8916,-5.5406,91.96,20,37,3.4,ES,1662893496
bathsheba,13.2167,-59.5167,83.01,74,20,13.8,BB,1662893497
petropavlovsk-kamchatskiy,53.0452,158.6483,52.39,71,75,4.47,RU,1662892950
voh,-20.9667,164.7,71.92,91,12,3.94,NC,1662893498
caravelas,-17.7125,-39.2481,74.52,64,11,6.2,BR,1662892961
jalingo,8.8833,11.3667,81.34,73,94,7.02,NG,1662893313
sihora,23.4833,80.1167,88.93,82,46,11.77,IN,1662893499
buala,-8.145,159.5921,79.3,81,22,6.62,SB,1662893500
nchelenge,-9.3451,28.734,83.1,38,66,9.06,ZM,1662893500
son la,21.3167,103.9,71.46,95,83,2.95,VN,1662893501
psebay,44.1234,40.8107,79.88,26,31,6.4,RU,1662893502
santander,43.4647,-3.8044,92.71,61,0,5.01,ES,1662893502
assiniboia,49.6334,-105.9845,44.42,49,0,9.22,CA,1662893503
boyuibe,-20.4167,-63.2833,53.62,36,25,2.64,BO,1662893504
jamame,0.0722,42.7506,85.14,53,75,17.18,SO,1662893506
poronaysk,49.2167,143.1167,57.54,83,3,7.36,RU,1662893338
padang,-0.9492,100.3543,84.25,82,91,1.63,ID,1662893509
sistranda,63.7256,8.834,55.36,74,78,1.88,NO,1662893510
lukulu,-14.3707,23.242,95.86,7,0,5.03,ZM,1662893511
bisho,-32.8472,27.4422,63.23,37,43,14.61,ZA,1662893512
tacuarembo,-31.7333,-55.9833,41.83,77,0,3.2,UY,1662893513
lipin bor,60.2622,37.9763,54.9,53,15,2.53,RU,1662893514
catio,11.2833,-15.25,82.6,74,80,5.23,GW,1662893515
tocopilla,-22.092,-70.1979,58.69,69,30,11.27,CL,1662893515
klyuchevskiy,53.5317,119.4519,42.37,77,91,3.85,RU,1662893516
zyryanka,65.75,150.85,40.12,92,99,2.26,RU,1662893516
zinder,13.8072,8.9881,83.01,54,92,1.01,NE,1662893517
villa altagracia,18.673,-70.171,78.12,94,45,3.13,DO,1662893517
yulara,-25.2406,130.9889,61.86,62,11,18.75,AU,1662893517
opuwo,-18.0607,13.84,91.02,11,0,11.81,NA,1662893518
abadan,30.3392,48.3043,114.75,6,0,24.16,IR,1662893519
havoysund,70.9963,24.6622,44.83,91,100,6.13,NO,1662892938
navahrudak,53.6,25.8333,47.86,95,100,7.72,BY,1662893519
broken hill,-31.95,141.4333,56.19,52,12,4.74,AU,1662893520
doetinchem,51.95,6.2833,71.26,87,12,4.79,NL,1662893520
mecca,21.4267,39.8261,106.99,23,80,14.81,SA,1662893521
port augusta,-32.5,137.7667,53.1,73,0,9.44,AU,1662893521
kalach-na-donu,48.691,43.5264,67.96,22,44,13.09,RU,1662893523
ishigaki,24.3448,124.1572,77.13,100,75,36.82,JP,1662893381
worcester,42.3334,-71.8328,65.71,89,100,1.01,US,1662893525
castra-nova,44.1167,24.0167,79.34,28,9,16.67,RO,1662893525
russell,32.3502,-85.1999,72.97,100,75,0.0,US,1662893526
constitucion,-35.3333,-72.4167,49.89,79,88,6.87,CL,1662893527
wanaka,-44.7,169.15,39.18,86,98,3.98,NZ,1662893528
saint-francois,46.4154,3.9054,71.67,56,20,6.91,FR,1662893529
fleet,51.2833,-0.8333,72.0,80,40,6.91,GB,1662893530
matay,28.419,30.7792,95.32,17,0,14.0,EG,1662893530
hopkinsville,36.8656,-87.4886,68.32,97,22,1.99,US,1662893530
strezhevoy,60.7333,77.5889,48.2,58,89,4.56,RU,1662893533
marsa matruh,31.3525,27.2453,84.4,70,20,14.97,EG,1662893533
sirur,18.8333,74.3833,76.37,83,100,3.6,IN,1662893240
tabou,4.423,-7.3528,77.65,79,58,9.53,CI,1662893534
mogadishu,2.0371,45.3438,84.07,70,75,17.27,SO,1662893492
rio grande,-32.035,-52.0986,42.91,74,0,4.9,BR,1662893534
tsalenjikha,42.6044,42.0682,86.72,30,5,7.9,GE,1662893535
natal,-5.795,-35.2094,77.22,83,40,6.91,BR,1662893535
goundam,16.4145,-3.6708,93.43,41,11,10.71,ML,1662893536
severo-yeniseyskiy,60.3725,93.0408,46.02,82,64,3.74,RU,1662893536
karpogory,64.0019,44.4451,55.78,61,58,5.06,RU,1662893536
pangnirtung,66.1451,-65.7125,44.53,97,100,5.95,CA,1662892986
qaqortoq,60.7167,-46.0333,45.55,73,100,2.17,GL,1662893538
yukhnov,54.7444,35.2297,46.74,78,100,9.93,RU,1662893540
oliver,49.1831,-119.5524,56.84,87,2,2.3,CA,1662893540
paka,4.6374,103.4368,85.93,74,20,5.75,MY,1662893542
miri,4.4148,114.0089,82.54,83,40,3.44,MY,1662893543
shawville,45.6001,-76.4827,57.81,85,76,3.24,CA,1662893544
lodja,-3.4833,23.4333,93.09,38,69,2.01,CD,1662893545
taoudenni,22.6783,-3.9836,106.66,14,12,11.83,ML,1662893545
imbituba,-28.24,-48.6703,56.86,71,0,5.82,BR,1662893546
kirakira,-10.4544,161.9205,79.48,86,97,9.69,SB,1662893037
gerash,27.6652,54.1371,102.34,16,4,11.79,IR,1662893547
northam,51.0333,-4.2167,67.39,81,100,13.11,GB,1662893547
rovaniemi,66.5,25.7167,54.81,76,75,11.5,FI,1662893548
douentza,14.9951,-2.9517,89.69,49,27,13.33,ML,1662893549
grand-santi,4.25,-54.3833,73.51,96,86,1.77,GF,1662893549
arauca,7.0847,-70.7591,73.4,100,98,2.3,CO,1662893549
tilichiki,60.4667,166.1,46.71,87,100,5.68,RU,1662893550
aranos,-24.1333,19.1167,89.55,6,0,10.83,NA,1662893014
karratha,-20.7377,116.8463,74.48,58,0,8.55,AU,1662893551
ust-nera,64.5667,143.2,35.17,79,84,7.7,RU,1662893552
honningsvag,70.9821,25.9704,44.35,87,100,2.3,NO,1662893552
coahuayana,18.7333,-103.6833,76.62,93,100,3.29,MX,1662893553
lakatoro,-16.0999,167.4164,78.42,75,5,10.54,VU,1662893553
ankazoabo,-22.2833,44.5167,92.28,12,0,8.48,MG,1662893554
acworth,34.0659,-84.6769,71.42,95,100,4.61,US,1662893449
